schid,school_name,level,gleaid,gleaname,maname,fips,lon,lat,charter,private,magnet,tps,population_school,minority_school,radius_nbrsch,count_nbrsch,population_nbrsch,minority_nbrsch,SCI_sys,glea_seg,urban,suburban,townrural
00331462,Sandpoint Jr Academy,2,1600002,LAKE PEND OREILLE SCHOOL DISTRICT,,16,-116.57949,48.272619,0,1,0,0,6,0,1,4,733,41,.0186335,.16965227,0,0,1
160000200082,Clark Fork Jr/Sr High School,2,1600002,LAKE PEND OREILLE SCHOOL DISTRICT,,16,-116.17556,48.146845,0,0,0,1,39,1,8,1,57,2,.0613354,.16965227,0,0,1
160000200603,Kootenai Elementary School,2,1600002,LAKE PEND OREILLE SCHOOL DISTRICT,,16,-116.51727,48.312017,0,0,0,1,53,3,3,1,77,3,.0147516,.16965227,0,0,1
160000200614,Hope Elementary School,2,1600002,LAKE PEND OREILLE SCHOOL DISTRICT,,16,-116.26387,48.217001,0,0,0,1,18,1,8,1,57,2,.003882,.16965227,0,0,1
160000200615,Farmin Stidwell Elementary School,2,1600002,LAKE PEND OREILLE SCHOOL DISTRICT,,16,-116.572,48.282789,0,0,0,1,54,4,1,3,592,36,.0714286,.16965227,0,0,1
160000200616,Southside Elementary School,2,1600002,LAKE PEND OREILLE SCHOOL DISTRICT,,16,-116.61574,48.103006,0,0,0,1,18,1,9,1,59,3,.003882,.16965227,0,0,1
160000200617,Washington Elementary School,2,1600002,LAKE PEND OREILLE SCHOOL DISTRICT,,16,-116.55776,48.26805,0,0,0,1,47,3,1,2,684,40,.0333851,.16965227,0,0,1
160000200618,Sagle Elementary School,2,1600002,LAKE PEND OREILLE SCHOOL DISTRICT,,16,-116.55377,48.202586,0,0,0,1,41,2,5,3,725,42,.007764,.16965227,0,0,1
160000200621,Northside Elementary School,2,1600002,LAKE PEND OREILLE SCHOOL DISTRICT,,16,-116.43909,48.364585,0,0,0,1,28,0,7,1,81,3,.0869565,.16965227,0,0,1
160000200724,Sandpoint Middle School,2,1600002,LAKE PEND OREILLE SCHOOL DISTRICT,,16,-116.56927,48.2701,0,0,0,1,496,32,1,5,780,44,.3726708,.16965227,0,0,1
160016500772,Forrest M Bird Charter School,2,1600002,LAKE PEND OREILLE SCHOOL DISTRICT,,16,-116.57111,48.26418,1,0,0,0,141,5,1,4,726,40,.1389752,.16965227,0,0,1
A9501601,Sandpoint Waldorf School,2,1600002,LAKE PEND OREILLE SCHOOL DISTRICT,,16,-116.57716,48.27261,0,1,0,0,36,0,1,4,733,41,.1118012,.16965227,0,0,1
A9701367,Sandpoint Christian School,2,1600002,LAKE PEND OREILLE SCHOOL DISTRICT,,16,-116.54717,48.322027,0,1,0,0,24,0,3,1,77,3,.0745342,.16965227,0,0,1
180159000222,James R Watson Elementary School,1,1801590,DeKalb Co Ctl United Sch Dist,,18,-85.043367,41.372054,0,0,0,1,582,38,2,1,1113,60,.4244612,.11847889,0,0,1
180159000225,Mckenney-Harrison Elementary Sch,1,1801590,DeKalb Co Ctl United Sch Dist,,18,-85.060572,41.363501,0,0,0,1,531,22,2,1,1113,60,.2246404,.11847889,0,0,1
180159000226,Waterloo Elementary School,1,1801590,DeKalb Co Ctl United Sch Dist,,18,-85.016325,41.429349,0,0,0,1,188,11,5,1,770,49,.0755388,.11847889,0,0,1
180159000847,Country Meadow Elementary School,1,1801590,DeKalb Co Ctl United Sch Dist,,18,-85.078799,41.488874,0,0,0,1,261,9,6,1,449,20,.1980028,.11847889,0,0,1
A9300373,Lakewood Park Christian School,1,1801590,DeKalb Co Ctl United Sch Dist,,18,-85.045851,41.33322,0,1,0,0,271,12,3,2,1384,72,.0773568,.11847889,0,0,1
00422248,St Philip School,1,1807290,M S D Mount Vernon,Evansville IN-KY,18,-87.716001,37.98636,0,1,0,0,107,1,4,1,802,29,.0840385,.5083089,0,0,1
00422259,St Matthew Elementary School,1,1807290,M S D Mount Vernon,Evansville IN-KY,18,-87.893595,37.933153,0,1,0,0,73,2,2,1,435,47,.0325,.5083089,0,0,1
180729001223,Farmersville Elementary School,1,1807290,M S D Mount Vernon,Evansville IN-KY,18,-87.897284,37.979267,0,0,0,1,238,5,4,2,673,52,.1346154,.5083089,0,0,1
180729001225,Marrs Elementary School,1,1807290,M S D Mount Vernon,Evansville IN-KY,18,-87.752432,37.941028,0,0,0,1,298,2,5,1,405,3,.2488462,.5083089,0,0,1
180729001228,West Elementary School,1,1807290,M S D Mount Vernon,Evansville IN-KY,18,-87.908036,37.930137,0,0,0,1,362,45,2,1,435,47,.5,.5083089,0,0,1
00515166,St Agnes School,2,2103090,Kenton County,Cincinnati-Middletown OH-KY-IN,21,-84.537671,39.063813,0,1,0,0,129,3,1,1,151,3,.0425083,.25978549,0,1,0
00515202,St Cecilia Elementary School,2,2103090,Kenton County,Cincinnati-Middletown OH-KY-IN,21,-84.545341,38.939964,0,1,0,0,75,0,2,1,782,41,.0395046,.25978549,0,1,0
00515483,St Anthony Elementary School,2,2103090,Kenton County,Cincinnati-Middletown OH-KY-IN,21,-84.503636,39.03371,0,1,0,0,13,1,2,2,773,346,.0016324,.25978549,0,1,0
00515632,St Pius X Elementary School,2,2103090,Kenton County,Cincinnati-Middletown OH-KY-IN,21,-84.568346,39.010703,0,1,0,0,197,1,1,1,1318,124,.0952856,.25978549,0,1,0
00515676,St Joseph School,2,2103090,Kenton County,Cincinnati-Middletown OH-KY-IN,21,-84.581211,39.05333,0,1,0,0,84,1,2,3,602,27,.0357653,.25978549,0,1,0
00515734,Notre Dame Academy,2,2103090,Kenton County,Cincinnati-Middletown OH-KY-IN,21,-84.532213,39.061911,0,1,0,0,22,0,1,1,151,3,.011588,.25978549,0,1,0
210309000820,Turkey Foot Middle School,2,2103090,Kenton County,Cincinnati-Middletown OH-KY-IN,21,-84.581152,39.011814,0,0,0,1,1121,123,1,1,1318,124,.452564,.25978549,0,1,0
210309000821,Twenhofel Middle School,2,2103090,Kenton County,Cincinnati-Middletown OH-KY-IN,21,-84.524228,38.9158,0,0,0,1,786,21,1,1,830,22,.2359307,.25978549,0,0,1
210309001588,Woodland Middle School,2,2103090,Kenton County,Cincinnati-Middletown OH-KY-IN,21,-84.508536,38.995765,0,0,0,1,714,49,2,1,718,50,.0394306,.25978549,0,1,0
210309002420,Summit View Academy,2,2103090,Kenton County,Cincinnati-Middletown OH-KY-IN,21,-84.539241,38.95677,0,0,0,1,707,41,2,1,782,41,.0247214,.25978549,0,1,0
A9102842,Community Christian Academy,2,2103090,Kenton County,Cincinnati-Middletown OH-KY-IN,21,-84.527711,38.9092,0,1,0,0,44,1,1,1,830,22,.0146962,.25978549,0,0,1
AA000362,Taylor Mill Christian Academy,2,2103090,Kenton County,Cincinnati-Middletown OH-KY-IN,21,-84.498271,39.01493,0,1,0,0,4,1,2,2,731,51,.006373,.25978549,0,1,0
00517287,Saline Christian Academy,1,2104950,Pulaski County,,21,-84.661238,37.086484,0,1,0,0,15,0,2,1,530,31,.0118785,.174129,0,0,1
210495000779,Oak Hill Elementary School,1,2104950,Pulaski County,,21,-84.658571,37.061659,0,0,0,1,515,31,2,2,662,34,.0755572,.174129,0,0,1
210495001225,Burnside Elementary School,1,2104950,Pulaski County,,21,-84.59836,36.994372,0,0,0,1,428,13,3,1,445,13,.1362234,.174129,0,0,1
210495001227,Eubank Elementary School,1,2104950,Pulaski County,,21,-84.648863,37.275534,0,0,0,1,333,19,5,1,593,28,.0325659,.174129,0,0,1
210495001231,Nancy Elementary School,1,2104950,Pulaski County,,21,-84.755337,37.072704,0,0,0,1,347,5,7,2,877,36,.1968242,.174129,0,0,1
210495001234,Pulaski Elementary School,1,2104950,Pulaski County,,21,-84.616849,37.107502,0,0,0,1,629,36,2,2,1326,122,.063246,.174129,0,0,1
210495001235,Shopville Elementary School,1,2104950,Pulaski County,,21,-84.486391,37.159244,0,0,0,1,338,12,6,1,736,32,.0805454,.174129,0,0,1
210495001238,Northern Elementary School,1,2104950,Pulaski County,,21,-84.559217,37.176826,0,0,0,1,398,20,5,1,642,30,.0033146,.174129,0,0,1
210495001464,Southern Elementary School,1,2104950,Pulaski County,,21,-84.621299,37.036473,0,0,0,1,668,55,2,1,800,58,.3286309,.174129,0,0,1
A0501694,Jordan Christian Academy,1,2104950,Pulaski County,,21,-84.56061,36.99177,0,1,0,0,17,0,3,1,445,13,.0134623,.174129,0,0,1
A9701636,Somerset Christian School,1,2104950,Pulaski County,,21,-84.630472,37.057143,0,1,0,0,132,3,2,2,1315,89,.0577517,.174129,0,0,1
00517287,Saline Christian Academy,2,2104950,Pulaski County,,21,-84.661238,37.086484,0,1,0,0,8,0,3,1,79,2,.024231,.08715822,0,0,1
210495001572,Southern Middle School,2,2104950,Pulaski County,,21,-84.620413,37.03372,0,0,0,1,1037,62,2,1,1108,64,.5,.08715822,0,0,1
210495001573,Northern Middle School,2,2104950,Pulaski County,,21,-84.603277,37.115653,0,0,0,1,872,39,2,1,1230,78,.3509087,.08715822,0,0,1
A0501694,Jordan Christian Academy,2,2104950,Pulaski County,,21,-84.56061,36.99177,0,1,0,0,9,0,6,1,1046,62,.0272599,.08715822,0,0,1
A9701636,Somerset Christian School,2,2104950,Pulaski County,,21,-84.630472,37.057143,0,1,0,0,71,2,2,1,1108,64,.0976004,.08715822,0,0,1
00564282,Bangor Christian Schools,1,2302820,Bangor Public Schools,Bangor ME,23,-68.800751,44.84554,0,1,0,0,118,4,2,2,455,25,.1021719,.11782728,0,0,1
02029695,Penobscot Christian School,1,2302820,Bangor Public Schools,Bangor ME,23,-68.821991,44.83453,0,1,0,0,57,2,1,1,337,21,.0461915,.11782728,1,0,0
230282000046,Abraham Lincoln School,1,2302820,Bangor Public Schools,Bangor ME,23,-68.762442,44.806342,0,0,0,1,184,9,1,2,563,28,.0304374,.11782728,1,0,0
230282000049,Downeast School,1,2302820,Bangor Public Schools,Bangor ME,23,-68.82033,44.839412,0,0,0,1,280,19,1,1,337,21,.2011319,.11782728,1,0,0
230282000050,Fairmount School,1,2302820,Bangor Public Schools,Bangor ME,23,-68.79111,44.802348,0,0,0,1,289,16,1,2,553,32,.0391557,.11782728,1,0,0
230282000053,Fruit Street School,1,2302820,Bangor Public Schools,Bangor ME,23,-68.757119,44.813762,0,0,0,1,278,18,1,2,563,28,.159376,.11782728,1,0,0
230282000058,Vine Street School,1,2302820,Bangor Public Schools,Bangor ME,23,-68.785656,44.795628,0,0,0,1,149,9,1,2,553,32,.0552157,.11782728,1,0,0
230282001004,Mary Snow School,1,2302820,Bangor Public Schools,Bangor ME,23,-68.772693,44.817205,0,0,0,1,259,11,2,6,1375,71,.1206791,.11782728,1,0,0
230282001005,Fourteenth Street School,1,2302820,Bangor Public Schools,Bangor ME,23,-68.793232,44.803381,0,0,0,1,115,7,1,2,553,32,.0451208,.11782728,1,0,0
A0701084,All Saints Catholic School,1,2302820,Bangor Public Schools,Bangor ME,23,-68.763881,44.80459,0,1,0,0,101,1,1,2,563,28,.20052,.11782728,1,0,0
00564282,Bangor Christian Schools,2,2302820,Bangor Public Schools,Bangor ME,23,-68.800751,44.84554,0,1,0,0,48,2,2,1,66,3,.109215,.07256217,0,0,1
02029695,Penobscot Christian School,2,2302820,Bangor Public Schools,Bangor ME,23,-68.821991,44.83453,0,1,0,0,18,1,2,1,66,3,.0076792,.07256217,1,0,0
02030146,John Bapst Memorial High School,2,2302820,Bangor Public Schools,Bangor ME,23,-68.768431,44.80532,0,1,0,0,1,0,1,1,66,1,.0078214,.07256217,1,0,0
230282000051,James F. Doughty School,2,2302820,Bangor Public Schools,Bangor ME,23,-68.783817,44.797516,0,0,0,1,368,25,2,3,753,40,.4493743,.07256217,1,0,0
230282000054,William S. Cohen School,2,2302820,Bangor Public Schools,Bangor ME,23,-68.754452,44.811609,0,0,0,1,436,26,1,1,501,27,.0506257,.07256217,1,0,0
A0701084,All Saints Catholic School,2,2302820,Bangor Public Schools,Bangor ME,23,-68.763881,44.80459,0,1,0,0,65,1,1,2,502,27,.3752844,.07256217,1,0,0
00643824,Hudsonville Christian School,1,2618840,Hudsonville Public School District,Holland-Grand Haven MI,26,-85.866741,42.87328,0,1,0,0,541,25,1,1,947,50,.0424949,.17386371,0,1,0
261884001907,Georgetown Elementary School,1,2618840,Hudsonville Public School District,Holland-Grand Haven MI,26,-85.880116,42.908433,0,0,0,1,564,22,2,2,1417,64,.1018795,.17386371,0,0,1
261884005559,Alward Elementary School,1,2618840,Hudsonville Public School District,Holland-Grand Haven MI,26,-85.87551,42.886295,0,0,0,1,475,19,2,5,2758,116,.0791189,.17386371,0,1,0
261884005560,Bauer Elementary School,1,2618840,Hudsonville Public School District,Holland-Grand Haven MI,26,-85.901607,42.916091,0,0,0,1,378,23,2,1,942,45,.048712,.17386371,0,1,0
261884005561,Forest Grove Elementary School,1,2618840,Hudsonville Public School District,Holland-Grand Haven MI,26,-85.862229,42.797477,0,0,0,1,316,29,3,2,999,75,.1792163,.17386371,0,0,1
261884005564,Park Elemementary School,1,2618840,Hudsonville Public School District,Holland-Grand Haven MI,26,-85.876821,42.869525,0,0,0,1,406,25,1,2,1342,75,.0565194,.17386371,0,1,0
261884005565,Jamestown Upper Elementary School,1,2618840,Hudsonville Public School District,Holland-Grand Haven MI,26,-85.846485,42.828195,0,0,0,1,322,25,1,1,683,46,.1181283,.17386371,0,1,0
261884005566,South Elementary School,1,2618840,Hudsonville Public School District,Holland-Grand Haven MI,26,-85.87921,42.857634,0,0,0,1,395,25,1,1,801,50,.0645872,.17386371,0,1,0
261884008782,Jamestown Lower Elementary School,1,2618840,Hudsonville Public School District,Holland-Grand Haven MI,26,-85.844801,42.8317,0,0,1,0,361,21,1,1,683,46,.0328368,.17386371,0,1,0
A9103492,Heritage Christian School,1,2618840,Hudsonville Public School District,Holland-Grand Haven MI,26,-85.847031,42.88348,0,1,0,0,377,0,2,5,2635,157,.2765066,.17386371,0,1,0
00643824,Hudsonville Christian School,2,2618840,Hudsonville Public School District,Holland-Grand Haven MI,26,-85.866741,42.87328,0,1,0,0,271,12,2,1,434,12,.1174533,.11224756,0,1,0
261884000700,Baldwin Street Middle School,2,2618840,Hudsonville Public School District,Holland-Grand Haven MI,26,-85.879265,42.910435,0,0,0,1,924,56,3,5,1596,77,.2513995,.11224756,0,0,1
261884001250,Riley Street Middle School,2,2618840,Hudsonville Public School District,Holland-Grand Haven MI,26,-85.850102,42.827743,0,0,0,1,649,41,4,2,1083,53,.2486005,.11224756,0,1,0
A9103492,Heritage Christian School,2,2618840,Hudsonville Public School District,Holland-Grand Haven MI,26,-85.847031,42.88348,0,1,0,0,163,0,2,4,671,33,.3825467,.11224756,0,1,0
00637366,St Charles Borromeo Catholic Academy,1,2619800,Jefferson Schools (Monroe),Monroe MI,26,-83.290281,41.996241,0,1,0,0,114,1,1,1,437,12,.0962585,.39772727,0,1,0
260031101760,Triumph Academy,1,2619800,Jefferson Schools (Monroe),Monroe MI,26,-83.362063,41.953706,1,0,0,0,513,51,2,1,551,52,.5,.39772727,0,0,1
261980005635,Sodt Elementary School,1,2619800,Jefferson Schools (Monroe),Monroe MI,26,-83.32055,41.945986,0,0,0,1,235,1,1,1,348,3,.2197279,.39772727,0,0,1
261980005637,Jefferson Middle School,1,2619800,Jefferson Schools (Monroe),Monroe MI,26,-83.312377,41.954041,0,0,0,1,113,2,1,1,348,3,.0751701,.39772727,0,1,0
261980007740,North Elementary School,1,2619800,Jefferson Schools (Monroe),Monroe MI,26,-83.278685,41.998697,0,0,0,1,323,11,1,1,437,12,.1088435,.39772727,0,0,1
00637366,St Charles Borromeo Catholic Academy,2,2619800,Jefferson Schools (Monroe),Monroe MI,26,-83.290281,41.996241,0,1,0,0,55,1,4,1,457,13,.0841432,.34589526,0,1,0
260031101760,Triumph Academy,2,2619800,Jefferson Schools (Monroe),Monroe MI,26,-83.362063,41.953706,1,0,0,0,207,23,2,1,224,24,.5,.34589526,0,0,1
261980005637,Jefferson Middle School,2,2619800,Jefferson Schools (Monroe),Monroe MI,26,-83.312377,41.954041,0,0,0,1,402,12,4,2,664,36,.4158568,.34589526,0,1,0
00636522,Bishop Kelley Catholic School,1,2621180,Lapeer Community Schools,Detroit-Warren-Livonia MI,26,-83.318221,43.05193,0,1,0,0,81,3,1,1,541,17,.0226394,.2044137,0,0,1
260015100915,Chatfield School,1,2621180,Lapeer Community Schools,Detroit-Warren-Livonia MI,26,-83.33859,43.047586,1,0,0,0,322,11,1,1,365,11,.1098668,.2044137,0,0,1
262118005836,Mayfield Elementary School,1,2621180,Lapeer Community Schools,Detroit-Warren-Livonia MI,26,-83.319525,43.087896,0,0,0,1,413,21,3,5,1735,94,.0069556,.2044137,0,0,1
262118005837,Turrill Elementary School,1,2621180,Lapeer Community Schools,Detroit-Warren-Livonia MI,26,-83.316255,43.045236,0,0,0,1,460,14,1,1,541,17,.1937372,.2044137,0,0,1
262118005838,Elva Lynch Elementary School,1,2621180,Lapeer Community Schools,Detroit-Warren-Livonia MI,26,-83.279121,43.089157,0,0,1,0,378,15,3,1,791,36,.0841927,.2044137,0,0,1
262118005841,Ck Schickler Elementary School,1,2621180,Lapeer Community Schools,Detroit-Warren-Livonia MI,26,-83.337532,43.062044,0,0,0,1,360,41,1,1,403,41,.4930444,.2044137,0,0,1
262118005842,Emma Murphy Elementary School,1,2621180,Lapeer Community Schools,Detroit-Warren-Livonia MI,26,-83.317852,42.956882,0,0,0,1,340,15,7,4,1246,43,.043372,.2044137,0,0,1
AA890490,St Paul Lutheran School,1,2621180,Lapeer Community Schools,Detroit-Warren-Livonia MI,26,-83.341301,43.05235,0,1,0,0,43,0,1,2,725,52,.0461919,.2044137,0,0,1
00701221,St Francis Xavier Elementary School,1,2707200,BUFFALO-HANOVER-MONTROSE PUBLIC SCH,Minneapolis-St. Paul-Bloomington MN-WI,27,-93.876321,45.20363,0,1,0,0,125,2,2,4,1803,83,.0604357,.28194089,0,0,1
00704572,Salem Lutheran School,1,2707200,BUFFALO-HANOVER-MONTROSE PUBLIC SCH,Minneapolis-St. Paul-Bloomington MN-WI,27,-93.667191,45.12925,0,1,0,0,63,0,2,1,500,15,.0445122,.28194089,0,0,1
270720000283,Parkside Elementary,1,2707200,BUFFALO-HANOVER-MONTROSE PUBLIC SCH,Minneapolis-St. Paul-Bloomington MN-WI,27,-93.872803,45.175563,0,0,0,1,388,34,1,2,1131,64,.1998566,.28194089,0,0,1
270720000286,Hanover Elementary,1,2707200,BUFFALO-HANOVER-MONTROSE PUBLIC SCH,Minneapolis-St. Paul-Bloomington MN-WI,27,-93.667406,45.156434,0,0,0,1,437,15,2,1,500,15,.0996436,.28194089,0,1,0
270720000287,Montrose Elementary,1,2707200,BUFFALO-HANOVER-MONTROSE PUBLIC SCH,Minneapolis-St. Paul-Bloomington MN-WI,27,-93.908721,45.067972,0,0,0,1,341,36,5,1,627,41,.2609461,.28194089,0,0,1
270720001875,Tatanka Elementary,1,2707200,BUFFALO-HANOVER-MONTROSE PUBLIC SCH,Minneapolis-St. Paul-Bloomington MN-WI,27,-93.864837,45.181287,0,0,0,1,497,28,1,2,1131,64,.0391973,.28194089,0,0,1
270720002686,Discovery Elementary,1,2707200,BUFFALO-HANOVER-MONTROSE PUBLIC SCH,Minneapolis-St. Paul-Bloomington MN-WI,27,-93.873861,45.175285,0,0,0,1,246,2,1,2,1131,64,.1459274,.28194089,0,0,1
270720004186,Northwinds Elementary,1,2707200,BUFFALO-HANOVER-MONTROSE PUBLIC SCH,Minneapolis-St. Paul-Bloomington MN-WI,27,-93.891593,45.184169,0,0,0,1,547,17,2,4,1803,83,.1494812,.28194089,0,0,1
00702702,Winona Area Catholic Schools,2,2744070,WINONA AREA PUBLIC SCHOOL DISTRICT,,27,-91.622048,44.046409,0,1,0,0,56,1,1,1,76,1,.1269717,.17361156,0,0,1
00702983,Cotter Schools,2,2744070,WINONA AREA PUBLIC SCHOOL DISTRICT,,27,-91.666709,44.052862,0,1,0,0,90,3,1,2,181,7,.1398856,.17361156,0,0,1
00704211,St Johns Lutheran School,2,2744070,WINONA AREA PUBLIC SCHOOL DISTRICT,,27,-91.435346,43.904133,0,1,0,0,23,1,11,3,322,19,.0249977,.17361156,0,0,1
00704619,St Matthews Lutheran School,2,2744070,WINONA AREA PUBLIC SCHOOL DISTRICT,,27,-91.657494,44.052499,0,1,0,0,29,0,1,1,119,3,.0896135,.17361156,0,0,1
00705623,St Martin S Lutheran School,2,2744070,WINONA AREA PUBLIC SCHOOL DISTRICT,,27,-91.630031,44.04806,0,1,0,0,20,0,1,1,76,1,.0618024,.17361156,0,0,1
270022103136,Riverway Secondary,2,2744070,WINONA AREA PUBLIC SCHOOL DISTRICT,,27,-91.688458,44.052706,1,0,0,0,16,0,1,1,24,1,.0494419,.17361156,0,0,1
270022103478,Riverway Learning Community Chtr,2,2744070,WINONA AREA PUBLIC SCHOOL DISTRICT,,27,-91.688458,44.052706,1,0,0,0,8,1,1,1,24,1,.0213541,.17361156,0,0,1
270585000018,Bluffview Montessori,2,2744070,WINONA AREA PUBLIC SCHOOL DISTRICT,,27,-91.671777,44.048166,1,0,0,0,62,4,1,1,152,7,.0072872,.17361156,0,0,1
274407001830,Winona Middle,2,2744070,WINONA AREA PUBLIC SCHOOL DISTRICT,,27,-91.61148,44.021096,0,0,0,1,695,57,2,1,751,58,.4786459,.17361156,0,0,1
00791679,St Joseph School,2,3018570,Missoula Elem,Missoula MT,30,-114.00559,46.86094,0,1,0,0,71,1,1,1,727,31,.1363415,.10386037,1,0,0
02042016,Valley Christian School,2,3018570,Missoula Elem,Missoula MT,30,-114.04172,46.85811,0,1,0,0,66,4,1,1,580,39,.0322267,.10386037,1,0,0
301857000565,Porter Middle School,2,3018570,Missoula Elem,Missoula MT,30,-114.04105,46.851122,0,0,0,1,514,35,1,1,580,39,.4502271,.10386037,1,0,0
301857000575,Meadow Hill Middle School,2,3018570,Missoula Elem,Missoula MT,30,-114.03961,46.832112,0,0,0,1,506,24,1,1,509,24,.0980859,.10386037,1,0,0
301857000581,Washington Middle School,2,3018570,Missoula Elem,Missoula MT,30,-114.00696,46.850032,0,0,0,1,656,30,1,1,727,31,.1848708,.10386037,1,0,0
A0502173,Missoula Int'L School,2,3018570,Missoula Elem,Missoula MT,30,-113.9749,46.87266,0,1,0,0,52,3,3,2,779,34,.0175462,.10386037,1,0,0
A1101411,Lighthouse Baptist Academy,2,3018570,Missoula Elem,Missoula MT,30,-114.04338,46.82078,0,1,0,0,3,0,1,1,509,24,.0079485,.10386037,1,0,0
A9103914,Sussex School,2,3018570,Missoula Elem,Missoula MT,30,-114.02523,46.86827,0,1,0,0,47,1,2,4,1354,71,.0727533,.10386037,1,0,0
00810809,Aquinas Middle High School,2,3100002,DAVID CITY PUBLIC SCHOOLS,,31,-97.126761,41.24113,0,1,0,0,98,3,1,2,212,13,.4119241,.27162311,0,0,1
310000200191,David City Elementary School,2,3100002,DAVID CITY PUBLIC SCHOOLS,,31,-97.123605,41.254356,0,0,0,1,27,4,1,2,212,13,.3638211,.27162311,0,0,1
310000200192,David City Secondary School,2,3100002,DAVID CITY PUBLIC SCHOOLS,,31,-97.12495,41.253149,0,0,0,1,87,6,1,2,212,13,.1361789,.27162311,0,0,1
310000200975,Bellwood Elementary School,2,3100002,DAVID CITY PUBLIC SCHOOLS,,31,-97.242092,41.341225,0,0,0,1,10,0,9,1,19,2,.0880759,.27162311,0,0,1
317011000719,Spring Ridge Elementary,1,3170110,ELKHORN PUBLIC SCHOOLS,Omaha-Council Bluffs NE-IA,31,-96.194854,41.245856,0,0,0,1,558,8,2,3,1920,64,.2135879,.2015948,1,0,0
317011000928,Skyline Elementary School,1,3170110,ELKHORN PUBLIC SCHOOLS,Omaha-Council Bluffs NE-IA,31,-96.244417,41.254543,0,0,0,1,524,19,2,1,1020,46,.078609,.2015948,1,0,0
317011001784,Fire Ridge Elementary School,1,3170110,ELKHORN PUBLIC SCHOOLS,Omaha-Council Bluffs NE-IA,31,-96.223045,41.258057,0,0,0,1,496,27,2,2,1443,61,.0213083,.2015948,1,0,0
317011001801,Hillrise Elementary School,1,3170110,ELKHORN PUBLIC SCHOOLS,Omaha-Council Bluffs NE-IA,31,-96.227678,41.289978,0,0,0,1,371,15,1,2,1178,64,.039224,.2015948,1,0,0
317011001802,Westridge Elementary School,1,3170110,ELKHORN PUBLIC SCHOOLS,Omaha-Council Bluffs NE-IA,31,-96.238382,41.286856,0,0,0,1,338,31,1,2,1178,64,.1483059,.2015948,1,0,0
317011002006,Manchester Elementary School,1,3170110,ELKHORN PUBLIC SCHOOLS,Omaha-Council Bluffs NE-IA,31,-96.186072,41.283809,0,0,0,1,521,31,2,4,2358,226,.0504023,.2015948,0,1,0
317011002239,West Dodge Station Elementary,1,3170110,ELKHORN PUBLIC SCHOOLS,Omaha-Council Bluffs NE-IA,31,-96.204647,41.265634,0,0,0,1,423,15,2,3,1998,81,.0670436,.2015948,0,1,0
317011002277,Sagewood Elementary School,1,3170110,ELKHORN PUBLIC SCHOOLS,Omaha-Council Bluffs NE-IA,31,-96.192496,41.303243,0,0,0,1,422,43,2,2,970,76,.2307729,.2015948,0,0,1
317011002292,West Bay Elementary School,1,3170110,ELKHORN PUBLIC SCHOOLS,Omaha-Council Bluffs NE-IA,31,-96.211637,41.229381,0,0,0,1,424,26,2,3,2038,80,.0492106,.2015948,0,1,0
317011002337,Arbor View Elementary School,1,3170110,ELKHORN PUBLIC SCHOOLS,Omaha-Council Bluffs NE-IA,31,-96.237788,41.305007,0,0,0,1,336,13,1,1,805,31,.0417337,.2015948,0,0,1
A0302011,St Patrick'S Catholic School,1,3170110,ELKHORN PUBLIC SCHOOLS,Omaha-Council Bluffs NE-IA,31,-96.235691,41.29319,0,1,0,0,469,18,1,3,1514,77,.0598017,.2015948,1,0,0
00851641,St Patrick Academy,1,3305820,Portsmouth School District,Boston-Cambridge-Quincy MA-NH,33,-70.787396,43.043315,0,1,0,0,58,1,2,1,346,16,.2057357,.09404315,0,1,0
330582000373,Mary C. Dondero Elementary School,1,3305820,Portsmouth School District,Boston-Cambridge-Quincy MA-NH,33,-70.768249,43.037882,0,0,0,1,288,15,2,2,622,31,.0586035,.09404315,0,1,0
330582000376,Little Harbour School,1,3305820,Portsmouth School District,Boston-Cambridge-Quincy MA-NH,33,-70.752531,43.066679,0,0,0,1,433,19,2,1,690,36,.2942643,.09404315,0,1,0
330582000377,New Franklin School,1,3305820,Portsmouth School District,Boston-Cambridge-Quincy MA-NH,33,-70.776647,43.077175,0,0,0,1,257,17,2,1,690,36,.4413965,.09404315,0,1,0
02043348,Yavneh Academy,2,3412420,Paramus Public School District,New York-Northern New Jersey-Long Island NY-NJ-PA,34,-74.072559,40.911136,0,1,0,0,296,0,1,1,453,55,.2212257,.46233587,0,1,0
341242000690,West Brook Middle School,2,3412420,Paramus Public School District,New York-Northern New Jersey-Long Island NY-NJ-PA,34,-74.083079,40.961463,0,0,0,1,424,61,2,2,1339,163,.2322824,.46233587,0,1,0
341242000692,East Brook Middle School,2,3412420,Paramus Public School District,New York-Northern New Jersey-Long Island NY-NJ-PA,34,-74.055119,40.930086,0,0,0,1,474,69,1,2,622,81,.2669359,.46233587,0,1,0
A0502266,Ben Porat Yosef,2,3412420,Paramus Public School District,New York-Northern New Jersey-Long Island NY-NJ-PA,34,-74.050361,40.9168,0,1,0,0,93,0,1,2,622,81,.0695067,.46233587,0,1,0
A0701561,Yeshivat Noam School,2,3412420,Paramus Public School District,New York-Northern New Jersey-Long Island NY-NJ-PA,34,-74.076251,40.93133,0,1,0,0,280,0,1,1,291,1,.2092676,.46233587,0,1,0
A1702419,Fusion Academy Englewood,2,3412420,Paramus Public School District,New York-Northern New Jersey-Long Island NY-NJ-PA,34,-74.070954,40.927241,0,1,0,0,11,1,1,1,291,1,.0007816,.46233587,0,1,0
00863384,St Peter Academy,2,3413890,River Edge School District,New York-Northern New Jersey-Long Island NY-NJ-PA,34,-74.045723,40.926407,0,1,0,0,55,12,1,7,1157,99,.2320513,.69642857,0,1,0
341389000792,Cherry Hill School,2,3413890,River Edge School District,New York-Northern New Jersey-Long Island NY-NJ-PA,34,-74.035902,40.92061,0,0,0,1,80,9,1,7,625,31,.124359,.69642857,0,1,0
341389000794,Roosevelt School,2,3413890,River Edge School District,New York-Northern New Jersey-Long Island NY-NJ-PA,34,-74.034158,40.934015,0,0,0,1,65,9,1,7,1177,89,.1435897,.69642857,0,1,0
A1101538,Sinai School At Rynj,2,3413890,River Edge School District,New York-Northern New Jersey-Long Island NY-NJ-PA,34,-74.032691,40.93044,0,1,0,0,13,0,1,7,1177,89,.0166667,.69642857,0,1,0
A1502376,Sinai School At Rynj,2,3413890,River Edge School District,New York-Northern New Jersey-Long Island NY-NJ-PA,34,-74.032691,40.93044,0,1,0,0,12,0,1,7,1177,89,.0153846,.69642857,0,1,0
K9303713,Yeshiva Of North Jersey,2,3413890,River Edge School District,New York-Northern New Jersey-Long Island NY-NJ-PA,34,-74.032691,40.93044,0,1,0,0,365,0,1,7,1177,89,.4679487,.69642857,0,1,0
00939006,The Stony Brook School,2,3628200,THREE VILLAGE CENTRAL SCHOOL DISTRICT,New York-Northern New Jersey-Long Island NY-NJ-PA,36,-73.131085,40.922637,0,1,0,0,71,0,2,3,754,35,.1217649,.19914307,0,1,0
01904832,The Laurel Hill School,2,3628200,THREE VILLAGE CENTRAL SCHOOL DISTRICT,New York-Northern New Jersey-Long Island NY-NJ-PA,36,-73.096241,40.93585,0,1,0,0,44,1,2,5,1081,69,.0452136,.19914307,0,1,0
362820003802,Arrowhead Elementary School,2,3628200,THREE VILLAGE CENTRAL SCHOOL DISTRICT,New York-Northern New Jersey-Long Island NY-NJ-PA,36,-73.071302,40.909252,0,0,0,1,105,5,2,1,938,272,.0288432,.19914307,0,1,0
362820003803,Minnesauke Elementary School,2,3628200,THREE VILLAGE CENTRAL SCHOOL DISTRICT,New York-Northern New Jersey-Long Island NY-NJ-PA,36,-73.105952,40.923878,0,0,0,1,94,5,1,1,194,17,.0099782,.19914307,0,1,0
362820003804,Nassakeag Elementary School,2,3628200,THREE VILLAGE CENTRAL SCHOOL DISTRICT,New York-Northern New Jersey-Long Island NY-NJ-PA,36,-73.107514,40.912055,0,0,0,1,100,12,1,1,194,17,.1914562,.19914307,0,1,0
362820003806,Paul J Gelinas Junior High School,2,3628200,THREE VILLAGE CENTRAL SCHOOL DISTRICT,New York-Northern New Jersey-Long Island NY-NJ-PA,36,-73.122732,40.939267,0,0,0,1,489,18,1,1,598,28,.2942002,.19914307,0,1,0
362820003807,Robert Cushman Murphy Junior High School,2,3628200,THREE VILLAGE CENTRAL SCHOOL DISTRICT,New York-Northern New Jersey-Long Island NY-NJ-PA,36,-73.113934,40.8937,0,0,0,1,473,33,2,2,640,49,.1869348,.19914307,0,1,0
362820003808,Setauket Elementary School,2,3628200,THREE VILLAGE CENTRAL SCHOOL DISTRICT,New York-Northern New Jersey-Long Island NY-NJ-PA,36,-73.109883,40.943333,0,0,0,1,109,10,1,1,598,28,.1155285,.19914307,0,1,0
362820003810,William Sidney Mount Elementary School,2,3628200,THREE VILLAGE CENTRAL SCHOOL DISTRICT,New York-Northern New Jersey-Long Island NY-NJ-PA,36,-73.136387,40.894023,0,0,0,1,67,4,2,2,573,41,.0060804,.19914307,0,1,0
363201000050,Cuba-Rushford High School,1,3632010,CUBA-RUSHFORD CENTRAL SCHOOL DISTRICT,,36,-78.270162,42.236726,0,0,0,1,1,0,2,1,368,20,.0172414,.07712766,0,0,1
363201000051,Cuba-Rushford Elementary School,1,3632010,CUBA-RUSHFORD CENTRAL SCHOOL DISTRICT,,36,-78.278781,42.217908,0,0,0,1,367,20,2,1,368,20,.5,.07712766,0,0,1
A1101661,Meadow Brook,1,3632010,CUBA-RUSHFORD CENTRAL SCHOOL DISTRICT,,36,-78.213981,42.264802,0,1,0,0,11,0,4,1,28,0,.1896552,.07712766,0,0,1
A9105096,Valleyview Amish School,1,3632010,CUBA-RUSHFORD CENTRAL SCHOOL DISTRICT,,36,-78.174181,42.29315,0,1,0,0,17,0,3,1,34,0,.2931035,.07712766,0,0,1
01059621,St Bernadette School,1,3904420,Lancaster City,Columbus OH,39,-82.560491,39.72671,0,1,0,0,70,0,1,1,684,31,.1030658,.11112204,0,0,1
390442001129,Gorsuch West Elementary School,1,3904420,Lancaster City,Columbus OH,39,-82.627564,39.710714,0,0,0,1,594,41,2,2,1347,79,.3175709,.11112204,0,0,1
390442001130,Mt. Pleasant Elementary School,1,3904420,Lancaster City,Columbus OH,39,-82.599783,39.7217,0,0,0,1,560,29,2,2,1313,67,.0187072,.11112204,0,0,1
390442001133,Medill Elementary School,1,3904420,Lancaster City,Columbus OH,39,-82.571192,39.729952,0,0,0,1,614,31,1,2,690,31,.0026466,.11112204,0,0,1
390442001138,Tallmadge Elementary School,1,3904420,Lancaster City,Columbus OH,39,-82.611631,39.706222,0,0,0,1,580,35,2,2,1734,105,.1637219,.11112204,0,0,1
390442001139,Tarhe Trails Elementary School,1,3904420,Lancaster City,Columbus OH,39,-82.625545,39.747219,0,0,0,1,622,24,1,1,795,27,.2179647,.11112204,0,0,1
A0108633,Fairfield Christian Academy,1,3904420,Lancaster City,Columbus OH,39,-82.620951,39.73562,0,1,0,0,173,3,1,1,795,27,.1674887,.11112204,0,0,1
A1502818,Christ'S Church Christian Academy,1,3904420,Lancaster City,Columbus OH,39,-82.570351,39.73968,0,1,0,0,6,0,1,1,620,31,.0088342,.11112204,0,0,1
01059745,Blessed Sacrament School,2,3904445,Newark City,Columbus OH,39,-82.385231,40.06009,0,1,0,0,52,1,1,1,577,39,.051886,.21252237,0,1,0
01059767,St Francis De Sales School,2,3904445,Newark City,Columbus OH,39,-82.408661,40.06011,0,1,0,0,116,1,1,1,146,1,.1501708,.21252237,0,1,0
390013304183,Newark Digital Academy,2,3904445,Newark City,Columbus OH,39,-82.416731,40.06422,1,0,0,0,30,0,1,1,146,1,.046071,.21252237,0,1,0
390444501389,Wilson Middle School,2,3904445,Newark City,Columbus OH,39,-82.432196,40.057656,0,0,0,1,419,14,2,3,1044,50,.2518722,.21252237,0,1,0
390444505379,Liberty Middle School,2,3904445,Newark City,Columbus OH,39,-82.444677,40.07872,0,0,0,1,479,35,2,1,898,49,.2433654,.21252237,0,1,0
390444505383,Heritage Middle School,2,3904445,Newark City,Columbus OH,39,-82.382606,40.059074,0,0,0,1,525,38,1,1,577,39,.2566346,.21252237,0,1,0
01059053,St Bernadette Elementary School,2,3904506,Westlake City,Cleveland-Elyria-Mentor OH,39,-81.886571,41.45441,0,1,0,0,282,2,1,1,331,5,.4941412,.20743576,0,1,0
01063387,St Paul Lutheran School,2,3904506,Westlake City,Cleveland-Elyria-Mentor OH,39,-81.932231,41.46462,0,1,0,0,54,4,1,2,911,60,.020164,.20743576,0,1,0
390153905804,Albert Einstein Academy For Letters Arts And Sciences-Ohio,2,3904506,Westlake City,Cleveland-Elyria-Mentor OH,39,-81.949501,41.43756,1,0,0,0,58,16,3,6,1738,167,.3930768,.20743576,0,1,0
390450601975,Lee Burneson Middle School,2,3904506,Westlake City,Cleveland-Elyria-Mentor OH,39,-81.924038,41.455619,0,0,0,1,566,38,1,2,911,60,.0867591,.20743576,0,1,0
390450601976,Dover Intermediate School,2,3904506,Westlake City,Cleveland-Elyria-Mentor OH,39,-81.923631,41.45557,0,0,0,1,291,18,1,2,911,60,.0041744,.20743576,0,1,0
A9702697,Westside Christian Academy,2,3904506,Westlake City,Cleveland-Elyria-Mentor OH,39,-81.876261,41.45834,0,1,0,0,49,3,1,1,331,5,.0016844,.20743576,0,1,0
01057861,St Mary Of The Assumption School,2,3904549,Mentor Exempted Village,Cleveland-Elyria-Mentor OH,39,-81.333921,41.66769,0,1,0,0,97,0,2,2,1344,65,.291792,.0897001,0,1,0
390454902243,Memorial Middle School,2,3904549,Mentor Exempted Village,Cleveland-Elyria-Mentor OH,39,-81.318422,41.676077,0,0,0,1,766,35,2,1,863,35,.208208,.0897001,0,1,0
390454902245,Shore Middle School,2,3904549,Mentor Exempted Village,Cleveland-Elyria-Mentor OH,39,-81.344235,41.716095,0,0,0,1,581,30,1,1,607,33,.0488673,.0897001,0,1,0
390454902249,Ridge Middle School,2,3904549,Mentor Exempted Village,Cleveland-Elyria-Mentor OH,39,-81.358129,41.654786,0,0,0,1,481,30,2,2,583,30,.3496838,.0897001,0,1,0
A0108655,Mentor Christian School,2,3904549,Mentor Exempted Village,Cleveland-Elyria-Mentor OH,39,-81.330641,41.7165,0,1,0,0,26,3,1,1,607,33,.1014488,.0897001,0,1,0
01055605,St Veronica Elementary School,1,3904635,West Clermont Local,Cincinnati-Middletown OH-KY-IN,39,-84.300621,39.10142,0,1,0,0,270,4,1,1,587,38,.1041296,.2240991,0,1,0
01056813,St Bernadette School,1,3904635,West Clermont Local,Cincinnati-Middletown OH-KY-IN,39,-84.228666,39.028489,0,1,0,0,176,2,1,1,908,32,.0743112,.2240991,0,1,0
390463502520,Amelia Elementary School,1,3904635,West Clermont Local,Cincinnati-Middletown OH-KY-IN,39,-84.214964,39.03023,0,0,0,1,732,30,1,1,908,32,.079395,.2240991,0,1,0
390463502523,Brantner Lane Elementary School,1,3904635,West Clermont Local,Cincinnati-Middletown OH-KY-IN,39,-84.293696,39.091102,0,0,0,1,317,34,1,1,587,38,.1881538,.2240991,0,1,0
390463502524,Clough Pike Elementary School,1,3904635,West Clermont Local,Cincinnati-Middletown OH-KY-IN,39,-84.277405,39.084851,0,0,0,1,552,31,2,5,2215,135,.0288651,.2240991,0,1,0
390463502527,Merwin Elementary School,1,3904635,West Clermont Local,Cincinnati-Middletown OH-KY-IN,39,-84.260546,39.05197,0,0,0,1,473,23,2,2,1108,74,.0130125,.2240991,0,1,0
390463502528,Summerside Elementary School,1,3904635,West Clermont Local,Cincinnati-Middletown OH-KY-IN,39,-84.284263,39.11171,0,0,0,1,441,15,2,3,1580,84,.0803922,.2240991,0,1,0
390463502530,Willowville Elementary School,1,3904635,West Clermont Local,Cincinnati-Middletown OH-KY-IN,39,-84.242523,39.100731,0,0,0,1,414,11,3,2,1407,57,.1081135,.2240991,0,1,0
390463502531,Withamsville-Tobasco Elementary School,1,3904635,West Clermont Local,Cincinnati-Middletown OH-KY-IN,39,-84.281669,39.065502,0,0,0,1,482,47,1,1,635,51,.2363324,.2240991,0,1,0
390463504224,Holly Hill Elementary School,1,3904635,West Clermont Local,Cincinnati-Middletown OH-KY-IN,39,-84.197513,39.027106,0,0,0,1,324,21,2,1,1056,51,.0466486,.2240991,0,1,0
A0302501,St Thomas More School,1,3904635,West Clermont Local,Cincinnati-Middletown OH-KY-IN,39,-84.281666,39.065486,0,1,0,0,153,4,1,1,635,51,.0406458,.2240991,0,1,0
01056573,Our Lady Of The Visitation School,1,3904737,Oak Hills Local,Cincinnati-Middletown OH-KY-IN,39,-84.668191,39.14637,0,1,0,0,407,3,1,2,1521,27,.1690813,.26343803,0,1,0
390473702868,C O Harrison Elementary School,1,3904737,Oak Hills Local,Cincinnati-Middletown OH-KY-IN,39,-84.638233,39.103431,0,0,0,1,914,73,3,4,2134,383,.1737504,.26343803,0,1,0
390473702869,Charles W Springmyer Elementary School,1,3904737,Oak Hills Local,Cincinnati-Middletown OH-KY-IN,39,-84.653784,39.168727,0,0,0,1,494,33,2,4,2790,107,.0399927,.26343803,0,1,0
390473702871,Delshire Elementary School,1,3904737,Oak Hills Local,Cincinnati-Middletown OH-KY-IN,39,-84.597159,39.089701,0,0,0,1,516,61,2,3,1341,539,.2633668,.26343803,0,1,0
390473702872,John Foster Dulles Elementary School,1,3904737,Oak Hills Local,Cincinnati-Middletown OH-KY-IN,39,-84.661197,39.151771,0,0,0,1,707,23,1,2,1521,27,.1451324,.26343803,0,1,0
390473702874,Oakdale Elementary School,1,3904737,Oak Hills Local,Cincinnati-Middletown OH-KY-IN,39,-84.635024,39.161515,0,0,0,1,775,47,2,5,2620,403,.02289,.26343803,0,1,0
BB182120,Our Lady Of Visitation Church,1,3904737,Oak Hills Local,Cincinnati-Middletown OH-KY-IN,39,-84.668834,39.145623,0,1,0,0,407,1,1,2,1521,27,.1857862,.26343803,0,1,0
01056573,Our Lady Of The Visitation School,2,3904737,Oak Hills Local,Cincinnati-Middletown OH-KY-IN,39,-84.668191,39.14637,0,1,0,0,331,2,1,1,662,3,.2421793,.25375388,0,1,0
390473702722,Rapid Run Middle School,2,3904737,Oak Hills Local,Cincinnati-Middletown OH-KY-IN,39,-84.659837,39.111882,0,0,0,1,666,36,2,1,683,37,.0128584,.25375388,0,1,0
390473702867,Bridgetown Middle School,2,3904737,Oak Hills Local,Cincinnati-Middletown OH-KY-IN,39,-84.628711,39.160711,0,0,0,1,646,37,1,1,715,77,.0450231,.25375388,0,1,0
390473702870,Delhi Middle School,2,3904737,Oak Hills Local,Cincinnati-Middletown OH-KY-IN,39,-84.615796,39.104678,0,0,0,1,544,57,2,4,1409,645,.4421185,.25375388,0,1,0
BB182120,Our Lady Of Visitation Church,2,3904737,Oak Hills Local,Cincinnati-Middletown OH-KY-IN,39,-84.668834,39.145623,0,1,0,0,331,1,1,1,662,3,.2578207,.25375388,0,1,0
01193077,Our Lady Of Fatima School,1,4212030,Hopewell Area SD,Pittsburgh PA,42,-80.258588,40.584752,0,1,0,0,108,2,1,2,473,30,.1457081,.23043324,0,1,0
421203000671,Independence El Sch,1,4212030,Hopewell Area SD,Pittsburgh PA,42,-80.327763,40.545056,0,0,0,1,227,4,4,1,596,25,.3147249,.23043324,0,0,1
421203000672,Hopewell El Sch,1,4212030,Hopewell Area SD,Pittsburgh PA,42,-80.279903,40.576782,0,0,0,1,369,21,2,3,842,51,.0910772,.23043324,0,1,0
421203000674,Hopewell Jhs,1,4212030,Hopewell Area SD,Pittsburgh PA,42,-80.261941,40.590656,0,0,0,1,146,7,1,2,473,30,.0183773,.23043324,0,1,0
421203009954,Margaret Ross El Sch,1,4212030,Hopewell Area SD,Pittsburgh PA,42,-80.260625,40.592367,0,0,0,1,219,21,1,2,473,30,.4089228,.23043324,0,1,0
A0302623,Bethel Christian School,1,4212030,Hopewell Area SD,Pittsburgh PA,42,-80.40676,40.560128,0,1,0,0,10,0,3,1,403,0,.0211897,.23043324,0,0,1
01192346,Sacred Heart Of Jesus School,1,4215290,Mifflin County SD,,42,-77.573681,40.60084,0,1,0,0,65,4,1,1,623,46,.0049879,.42537955,0,0,1
01197049,Belleville Mennonite School,1,4215290,Mifflin County SD,,42,-77.726841,40.59041,0,1,0,0,75,1,2,2,114,1,.0239375,.42537955,0,0,1
01202163,Gospel Light School,1,4215290,Mifflin County SD,,42,-77.751561,40.48104,0,1,0,0,22,0,4,1,53,0,.0094308,.42537955,0,0,1
01908451,Beth El Christian Day School,1,4215290,Mifflin County SD,,42,-77.807791,40.54182,0,1,0,0,30,0,1,1,47,0,.0128602,.42537955,0,0,1
01908509,Rock Haven Christian School,1,4215290,Mifflin County SD,,42,-77.750111,40.59147,0,1,0,0,19,0,2,4,147,1,.0081448,.42537955,0,0,1
421529000784,Lewistown El Sch,1,4215290,Mifflin County SD,,42,-77.559749,40.59509,0,0,0,1,548,76,1,1,1106,118,.389269,.42537955,0,0,1
421529003196,Strodes Mills El Sch,1,4215290,Mifflin County SD,,42,-77.669296,40.546087,0,0,0,1,208,5,4,1,239,5,.0480994,.42537955,0,0,1
421529006261,East Derry El Sch,1,4215290,Mifflin County SD,,42,-77.498969,40.63092,0,0,0,1,254,5,5,1,802,81,.0678183,.42537955,0,0,1
421529007391,Indian Valley Intrmd Sch,1,4215290,Mifflin County SD,,42,-77.594143,40.689001,0,0,0,1,202,7,1,2,611,16,.0291015,.42537955,0,0,1
421529007392,Lewistown Intrmd Sch,1,4215290,Mifflin County SD,,42,-77.566268,40.594207,0,0,0,1,558,42,1,2,1171,122,.1057431,.42537955,0,0,1
421529007396,Indian Valley El Sch,1,4215290,Mifflin County SD,,42,-77.594143,40.68926,0,0,0,1,387,9,1,2,611,16,.0919801,.42537955,0,0,1
A0108874,Green Gate School,1,4215290,Mifflin County SD,,42,-77.681441,40.66021,0,1,0,0,18,0,1,1,41,0,.0077161,.42537955,0,0,1
A0502992,Green Lane School,1,4215290,Mifflin County SD,,42,-77.673801,40.649051,0,1,0,0,23,0,1,2,56,0,.0098595,.42537955,0,0,1
A0503023,Kisk Creek School,1,4215290,Mifflin County SD,,42,-77.689041,40.606405,0,1,0,0,20,0,1,1,60,2,.0085735,.42537955,0,0,1
A0503059,Mountain View School,1,4215290,Mifflin County SD,,42,-77.723949,40.631642,0,1,0,0,15,0,2,1,31,0,.0064301,.42537955,0,0,1
A0701972,Orchard Side School,1,4215290,Mifflin County SD,,42,-77.804332,40.525436,0,1,0,0,17,0,1,1,34,0,.0072874,.42537955,0,0,1
A0902702,Allison Gap School,1,4215290,Mifflin County SD,,42,-77.798559,40.567785,0,1,0,0,18,0,2,4,109,0,.0077161,.42537955,0,0,1
A0902714,Barrville Amish School,1,4215290,Mifflin County SD,,42,-77.665593,40.669737,0,1,0,0,17,0,1,1,30,0,.0072874,.42537955,0,0,1
A0903043,Mifflin Co Christian Academy,1,4215290,Mifflin County SD,,42,-77.411841,40.67172,0,1,0,0,34,0,7,3,314,5,.0145749,.42537955,0,0,1
A0903185,Soft Run School,1,4215290,Mifflin County SD,,42,-77.754023,40.609769,0,1,0,0,17,0,1,1,33,0,.0072874,.42537955,0,0,1
A1102009,Coffee Run School,1,4215290,Mifflin County SD,,42,-77.656253,40.664699,0,1,0,0,13,0,1,1,30,0,.0055727,.42537955,0,0,1
A1302722,Church Lane Amish School,1,4215290,Mifflin County SD,,42,-77.57848,40.693836,0,1,0,0,15,0,1,1,37,0,.0064301,.42537955,0,0,1
A1503442,Stony Hill School,1,4215290,Mifflin County SD,,42,-77.588218,40.684623,0,1,0,0,22,0,1,3,626,16,.0094308,.42537955,0,0,1
A1703046,Ka Vee Amish School,1,4215290,Mifflin County SD,,42,-77.786394,40.579366,0,1,0,0,20,0,1,1,41,0,.0085735,.42537955,0,0,1
A1703070,Living Springs Christian School,1,4215290,Mifflin County SD,,42,-77.705394,40.500834,0,1,0,0,31,0,4,2,261,5,.0132889,.42537955,0,0,1
A1703086,Meadow View Amish School,1,4215290,Mifflin County SD,,42,-77.712561,40.59851,0,1,0,0,20,0,2,3,155,3,.0085735,.42537955,0,0,1
A1703209,Sunnyview School,1,4215290,Mifflin County SD,,42,-77.548347,40.728099,0,1,0,0,23,0,4,1,38,0,.0098595,.42537955,0,0,1
A9105934,Pleasant View School,1,4215290,Mifflin County SD,,42,-77.667241,40.64777,0,1,0,0,15,0,1,1,38,0,.0064301,.42537955,0,0,1
A9105937,Poplar Grove School,1,4215290,Mifflin County SD,,42,-77.786394,40.579366,0,1,0,0,21,0,1,1,41,0,.0090021,.42537955,0,0,1
A9105987,Shady Grove School,1,4215290,Mifflin County SD,,42,-77.827441,40.537474,0,1,0,0,17,0,2,4,100,0,.0072874,.42537955,0,0,1
A9106042,Sunnyside School,1,4215290,Mifflin County SD,,42,-77.801026,40.536528,0,1,0,0,17,0,1,2,64,0,.0072874,.42537955,0,0,1
A9106074,Valley View Christian School,1,4215290,Mifflin County SD,,42,-77.700481,40.612452,0,1,0,0,40,2,1,1,60,2,.0007211,.42537955,0,0,1
A9106090,Waynesburg School,1,4215290,Mifflin County SD,,42,-77.780941,40.555413,0,1,0,0,20,0,2,4,96,0,.0085735,.42537955,0,0,1
A9106102,White Hall School,1,4215290,Mifflin County SD,,42,-77.771063,40.586756,0,1,0,0,20,0,2,4,97,0,.0085735,.42537955,0,0,1
A9106125,Woodland School,1,4215290,Mifflin County SD,,42,-77.629821,40.69192,0,1,0,0,17,0,2,1,36,0,.0072874,.42537955,0,0,1
A9503494,Clear View School,1,4215290,Mifflin County SD,,42,-77.74487,40.619529,0,1,0,0,16,0,1,1,33,0,.0068588,.42537955,0,0,1
A9703048,Shady Acre School,1,4215290,Mifflin County SD,,42,-77.607471,40.70192,0,1,0,0,19,0,2,4,647,16,.0081448,.42537955,0,0,1
01198596,Linville Hill Christian School,1,4218900,Pequea Valley SD,Lancaster PA,42,-76.060631,39.97271,0,1,0,0,162,6,2,1,215,6,.03376,.6026751,0,0,1
01199851,Meadow View School,1,4218900,Pequea Valley SD,Lancaster PA,42,-76.150745,40.039619,0,1,0,0,19,0,1,4,184,4,.0096234,.6026751,0,0,1
01199986,Weavertown Mennonite School,1,4218900,Pequea Valley SD,Lancaster PA,42,-76.162001,40.04545,0,1,0,0,117,4,1,3,175,4,.0270651,.6026751,0,0,1
01200133,Hickory Grove School,1,4218900,Pequea Valley SD,Lancaster PA,42,-76.106351,40.0213,0,1,0,0,20,0,1,1,444,80,.0101298,.6026751,0,1,0
01907538,Beaver Dam Amish School/Abnew Kauffman Chairman,1,4218900,Pequea Valley SD,Lancaster PA,42,-75.953386,40.047706,0,1,0,0,23,0,2,3,108,0,.0116493,.6026751,0,0,1
01907786,Irishtown School C/O Samuel Stoltzfus,1,4218900,Pequea Valley SD,Lancaster PA,42,-76.144801,40.0241,0,1,0,0,23,0,1,1,40,0,.0116493,.6026751,0,1,0
01907822,Limeville Amish School,1,4218900,Pequea Valley SD,Lancaster PA,42,-75.980748,40.007357,0,1,0,0,14,0,1,1,32,0,.0070909,.6026751,0,0,1
01908021,Spring Garden Parochial School,1,4218900,Pequea Valley SD,Lancaster PA,42,-76.033071,40.04168,0,1,0,0,17,0,1,1,30,0,.0086104,.6026751,0,0,1
421890002647,Paradise El Sch,1,4218900,Pequea Valley SD,Lancaster PA,42,-76.107249,40.00802,0,0,0,1,424,80,1,1,444,80,.4291371,.6026751,0,1,0
421890002648,Salisbury El Sch,1,4218900,Pequea Valley SD,Lancaster PA,42,-76.004566,40.018241,0,0,0,1,270,9,1,1,286,9,.0643153,.6026751,0,0,1
A0108970,Peach Lane School,1,4218900,Pequea Valley SD,Lancaster PA,42,-76.113544,39.955936,0,1,0,0,19,0,2,1,39,0,.0096234,.6026751,0,0,1
A0108974,Pequea Christian School,1,4218900,Pequea Valley SD,Lancaster PA,42,-75.96294,40.029727,0,1,0,0,47,0,1,1,70,0,.0238051,.6026751,0,0,1
A0108994,Red Hill Parochial School,1,4218900,Pequea Valley SD,Lancaster PA,42,-75.975266,40.073046,0,1,0,0,13,0,2,1,28,0,.0065844,.6026751,0,0,1
A0503058,Mountain Side School,1,4218900,Pequea Valley SD,Lancaster PA,42,-76.090421,39.98247,0,1,0,0,16,0,3,8,740,96,.0081039,.6026751,0,0,1
A0503112,Shady Glade School,1,4218900,Pequea Valley SD,Lancaster PA,42,-76.076318,40.021054,0,1,0,0,13,0,2,5,107,0,.0065844,.6026751,0,0,1
A0701975,Paradise Lane School,1,4218900,Pequea Valley SD,Lancaster PA,42,-76.147264,40.004638,0,1,0,0,13,0,2,3,67,0,.0065844,.6026751,0,0,1
A0902762,Cattail Parochial School,1,4218900,Pequea Valley SD,Lancaster PA,42,-76.069661,40.03703,0,1,0,0,19,0,1,1,37,0,.0096234,.6026751,0,0,1
A0903301,Windy Valley School,1,4218900,Pequea Valley SD,Lancaster PA,42,-76.074371,40.060091,0,1,0,0,11,0,1,1,34,0,.0055714,.6026751,0,0,1
A1101921,Blackhorse School,1,4218900,Pequea Valley SD,Lancaster PA,42,-76.119897,39.993827,0,1,0,0,14,0,1,1,33,10,.0070909,.6026751,0,0,1
A1101997,Smiling Ridge School @ Isaac S Stoltzers,1,4218900,Pequea Valley SD,Lancaster PA,42,-76.031767,40.029921,0,1,0,0,13,0,1,1,30,0,.0065844,.6026751,0,0,1
A1302656,Amish Road School,1,4218900,Pequea Valley SD,Lancaster PA,42,-76.039715,40.012009,0,1,0,0,22,0,2,4,82,0,.0111428,.6026751,0,0,1
A1302787,Meadow Springs School/Elam Stoltzfus Secretary,1,4218900,Pequea Valley SD,Lancaster PA,42,-76.014136,40.003031,0,1,0,0,15,0,2,3,323,9,.0075974,.6026751,0,0,1
A1302884,Meadowbrook Parochial,1,4218900,Pequea Valley SD,Lancaster PA,42,-76.114344,40.043675,0,1,0,0,21,0,1,2,72,1,.0106363,.6026751,0,0,1
A1303031,Summitview Christian School,1,4218900,Pequea Valley SD,Lancaster PA,42,-76.103003,40.038148,0,1,0,0,30,1,1,4,113,1,.0071461,.6026751,0,1,0
A1303081,Waterloo Amish School/Emanuel Stoltzfus Chairman,1,4218900,Pequea Valley SD,Lancaster PA,42,-75.953115,40.029977,0,1,0,0,23,0,1,1,70,0,.0116493,.6026751,0,0,1
A1503148,Buena Vista Amish School Elam H Stoltzfus,1,4218900,Pequea Valley SD,Lancaster PA,42,-75.979471,40.02129,0,1,0,0,18,0,1,2,43,0,.0091169,.6026751,0,0,1
A1503178,Colonial Amish School,1,4218900,Pequea Valley SD,Lancaster PA,42,-76.080961,40.04191,0,1,0,0,18,0,1,2,60,0,.0091169,.6026751,0,0,1
A1503244,Harvest Lane Amish School,1,4218900,Pequea Valley SD,Lancaster PA,42,-76.141273,40.044631,0,1,0,0,13,0,1,2,45,0,.0065844,.6026751,0,0,1
A1503328,Meadowbrook Parochial,1,4218900,Pequea Valley SD,Lancaster PA,42,-76.113528,40.044153,0,1,0,0,21,0,1,2,72,1,.0106363,.6026751,0,0,1
A1503474,Verdant Valley School/Mervin Stoltzfus Secretary,1,4218900,Pequea Valley SD,Lancaster PA,42,-75.961563,40.060647,0,1,0,0,15,0,2,2,51,0,.0075974,.6026751,0,0,1
A1703003,Clearview School,1,4218900,Pequea Valley SD,Lancaster PA,42,-76.132352,40.027574,0,1,0,0,17,0,1,2,54,0,.0086104,.6026751,0,0,1
A1703133,Pleasant Grove School,1,4218900,Pequea Valley SD,Lancaster PA,42,-76.050299,40.040966,0,1,0,0,17,0,1,1,33,0,.0086104,.6026751,0,0,1
A1703207,Sunny View School,1,4218900,Pequea Valley SD,Lancaster PA,42,-75.953798,40.099935,0,1,0,0,15,0,2,3,74,0,.0075974,.6026751,0,0,1
A1703250,Windy Valley,1,4218900,Pequea Valley SD,Lancaster PA,42,-76.089421,40.06181,0,1,0,0,11,0,1,2,53,0,.0055714,.6026751,0,0,1
A9105536,Centerville Amish School,1,4218900,Pequea Valley SD,Lancaster PA,42,-76.113801,40.05866,0,1,0,0,16,0,1,1,31,0,.0081039,.6026751,0,0,1
A9105582,Countryside School,1,4218900,Pequea Valley SD,Lancaster PA,42,-76.126561,40.06412,0,1,0,0,15,0,1,1,31,0,.0075974,.6026751,0,0,1
A9105694,Harristown School,1,4218900,Pequea Valley SD,Lancaster PA,42,-76.119897,39.993827,0,1,0,0,19,10,1,1,33,10,.0708629,.6026751,0,0,1
A9105696,Harvest Lane School,1,4218900,Pequea Valley SD,Lancaster PA,42,-76.141273,40.044631,0,1,0,0,13,0,1,2,45,0,.0065844,.6026751,0,0,1
A9105719,Hollow Amish School,1,4218900,Pequea Valley SD,Lancaster PA,42,-76.081651,40.05553,0,1,0,0,23,0,1,3,63,0,.0116493,.6026751,0,0,1
A9105805,Meadow Lane School,1,4218900,Pequea Valley SD,Lancaster PA,42,-76.097851,40.064403,0,1,0,0,19,0,1,2,41,0,.0096234,.6026751,0,0,1
A9105859,Muddy Run Amish School,1,4218900,Pequea Valley SD,Lancaster PA,42,-76.158908,40.046092,0,1,0,0,22,0,1,3,175,4,.0111428,.6026751,0,0,1
A9106018,Springhead Amish School/Sam Ebersol Chairman,1,4218900,Pequea Valley SD,Lancaster PA,42,-75.979621,40.03461,0,1,0,0,11,0,1,1,29,0,.0055714,.6026751,0,0,1
A9106099,Westfield Amish Parochial School,1,4218900,Pequea Valley SD,Lancaster PA,42,-76.096531,40.03953,0,1,0,0,17,0,1,2,71,1,.0086104,.6026751,0,0,1
A9303921,Newport School,1,4218900,Pequea Valley SD,Lancaster PA,42,-76.093611,40.033133,0,1,0,0,24,0,1,2,71,1,.0121558,.6026751,0,1,0
A9503511,East Gordon School,1,4218900,Pequea Valley SD,Lancaster PA,42,-76.121631,40.021388,0,1,0,0,14,0,1,1,31,0,.0070909,.6026751,0,0,1
A9702968,Millwood School,1,4218900,Pequea Valley SD,Lancaster PA,42,-76.018753,40.018018,0,1,0,0,16,0,1,1,286,9,.0081039,.6026751,0,0,1
A9702985,New Milltown Amish Parochial School,1,4218900,Pequea Valley SD,Lancaster PA,42,-76.057141,40.0289,0,1,0,0,16,0,1,1,33,0,.0081039,.6026751,0,0,1
01198596,Linville Hill Christian School,2,4218900,Pequea Valley SD,Lancaster PA,42,-76.060631,39.97271,0,1,0,0,73,2,2,1,98,2,.0332534,.59340715,0,0,1
01199851,Meadow View School,2,4218900,Pequea Valley SD,Lancaster PA,42,-76.150745,40.039619,0,1,0,0,8,0,1,4,87,1,.0078747,.59340715,0,0,1
01199986,Weavertown Mennonite School,2,4218900,Pequea Valley SD,Lancaster PA,42,-76.162001,40.04545,0,1,0,0,49,1,1,3,75,1,.0289309,.59340715,0,0,1
01200133,Hickory Grove School,2,4218900,Pequea Valley SD,Lancaster PA,42,-76.106351,40.0213,0,1,0,0,12,0,1,1,74,9,.011812,.59340715,0,1,0
01907538,Beaver Dam Amish School/Abnew Kauffman Chairman,2,4218900,Pequea Valley SD,Lancaster PA,42,-75.953386,40.047706,0,1,0,0,13,0,2,3,60,0,.0127964,.59340715,0,0,1
01907786,Irishtown School C/O Samuel Stoltzfus,2,4218900,Pequea Valley SD,Lancaster PA,42,-76.144801,40.0241,0,1,0,0,12,0,1,1,24,0,.011812,.59340715,0,1,0
01907822,Limeville Amish School,2,4218900,Pequea Valley SD,Lancaster PA,42,-75.980748,40.007357,0,1,0,0,11,0,1,1,21,0,.0108277,.59340715,0,0,1
01908021,Spring Garden Parochial School,2,4218900,Pequea Valley SD,Lancaster PA,42,-76.033071,40.04168,0,1,0,0,9,0,1,1,18,0,.008859,.59340715,0,0,1
421890002647,Paradise El Sch,2,4218900,Pequea Valley SD,Lancaster PA,42,-76.107249,40.00802,0,0,0,1,62,9,1,1,74,9,.1126851,.59340715,0,1,0
421890002648,Salisbury El Sch,2,4218900,Pequea Valley SD,Lancaster PA,42,-76.004566,40.018241,0,0,0,1,54,2,1,1,61,2,.0145511,.59340715,0,0,1
421890006300,Pequea Valley Intrmd Sch,2,4218900,Pequea Valley SD,Lancaster PA,42,-76.060924,40.022939,0,0,0,1,214,29,1,1,225,29,.349097,.59340715,0,0,1
A0108970,Peach Lane School,2,4218900,Pequea Valley SD,Lancaster PA,42,-76.113544,39.955936,0,1,0,0,8,0,2,1,16,0,.0078747,.59340715,0,0,1
A0108974,Pequea Christian School,2,4218900,Pequea Valley SD,Lancaster PA,42,-75.96294,40.029727,0,1,0,0,25,0,1,1,37,0,.0246084,.59340715,0,0,1
A0108994,Red Hill Parochial School,2,4218900,Pequea Valley SD,Lancaster PA,42,-75.975266,40.073046,0,1,0,0,14,0,2,1,24,0,.0137807,.59340715,0,0,1
A0503058,Mountain Side School,2,4218900,Pequea Valley SD,Lancaster PA,42,-76.090421,39.98247,0,1,0,0,11,0,3,8,217,13,.0108277,.59340715,0,0,1
A0503112,Shady Glade School,2,4218900,Pequea Valley SD,Lancaster PA,42,-76.076318,40.021054,0,1,0,0,13,0,2,6,282,29,.0127964,.59340715,0,0,1
A0701975,Paradise Lane School,2,4218900,Pequea Valley SD,Lancaster PA,42,-76.147264,40.004638,0,1,0,0,9,0,2,3,42,0,.008859,.59340715,0,0,1
A0902762,Cattail Parochial School,2,4218900,Pequea Valley SD,Lancaster PA,42,-76.069661,40.03703,0,1,0,0,9,0,1,1,19,0,.008859,.59340715,0,0,1
A0903301,Windy Valley School,2,4218900,Pequea Valley SD,Lancaster PA,42,-76.074371,40.060091,0,1,0,0,8,0,1,1,22,0,.0078747,.59340715,0,0,1
A1101921,Blackhorse School,2,4218900,Pequea Valley SD,Lancaster PA,42,-76.119897,39.993827,0,1,0,0,8,0,1,1,13,2,.0078747,.59340715,0,0,1
A1101997,Smiling Ridge School @ Isaac S Stoltzers,2,4218900,Pequea Valley SD,Lancaster PA,42,-76.031767,40.029921,0,1,0,0,9,0,1,1,18,0,.008859,.59340715,0,0,1
A1302656,Amish Road School,2,4218900,Pequea Valley SD,Lancaster PA,42,-76.039715,40.012009,0,1,0,0,11,0,2,5,265,29,.0108277,.59340715,0,0,1
A1302787,Meadow Springs School/Elam Stoltzfus Secretary,2,4218900,Pequea Valley SD,Lancaster PA,42,-76.014136,40.003031,0,1,0,0,13,0,2,3,85,2,.0127964,.59340715,0,0,1
A1302884,Meadowbrook Parochial,2,4218900,Pequea Valley SD,Lancaster PA,42,-76.114344,40.043675,0,1,0,0,9,0,1,2,33,1,.008859,.59340715,0,0,1
A1303031,Summitview Christian School,2,4218900,Pequea Valley SD,Lancaster PA,42,-76.103003,40.038148,0,1,0,0,15,1,1,4,58,1,.0045365,.59340715,0,1,0
A1303081,Waterloo Amish School/Emanuel Stoltzfus Chairman,2,4218900,Pequea Valley SD,Lancaster PA,42,-75.953115,40.029977,0,1,0,0,12,0,1,1,37,0,.011812,.59340715,0,0,1
A1503148,Buena Vista Amish School Elam H Stoltzfus,2,4218900,Pequea Valley SD,Lancaster PA,42,-75.979471,40.02129,0,1,0,0,10,0,1,2,30,0,.0098434,.59340715,0,0,1
A1503178,Colonial Amish School,2,4218900,Pequea Valley SD,Lancaster PA,42,-76.080961,40.04191,0,1,0,0,10,0,1,2,33,0,.0098434,.59340715,0,0,1
A1503244,Harvest Lane Amish School,2,4218900,Pequea Valley SD,Lancaster PA,42,-76.141273,40.044631,0,1,0,0,10,0,1,2,28,0,.0098434,.59340715,0,0,1
A1503328,Meadowbrook Parochial,2,4218900,Pequea Valley SD,Lancaster PA,42,-76.113528,40.044153,0,1,0,0,9,0,1,2,33,1,.008859,.59340715,0,0,1
A1503474,Verdant Valley School/Mervin Stoltzfus Secretary,2,4218900,Pequea Valley SD,Lancaster PA,42,-75.961563,40.060647,0,1,0,0,10,0,2,2,37,0,.0098434,.59340715,0,0,1
A1703003,Clearview School,2,4218900,Pequea Valley SD,Lancaster PA,42,-76.132352,40.027574,0,1,0,0,12,0,1,2,30,0,.011812,.59340715,0,0,1
A1703133,Pleasant Grove School,2,4218900,Pequea Valley SD,Lancaster PA,42,-76.050299,40.040966,0,1,0,0,15,0,1,1,26,0,.014765,.59340715,0,0,1
A1703207,Sunny View School,2,4218900,Pequea Valley SD,Lancaster PA,42,-75.953798,40.099935,0,1,0,0,6,0,2,3,29,0,.005906,.59340715,0,0,1
A1703250,Windy Valley,2,4218900,Pequea Valley SD,Lancaster PA,42,-76.089421,40.06181,0,1,0,0,8,0,1,2,27,0,.0078747,.59340715,0,0,1
A9105536,Centerville Amish School,2,4218900,Pequea Valley SD,Lancaster PA,42,-76.113801,40.05866,0,1,0,0,11,0,1,1,19,0,.0108277,.59340715,0,0,1
A9105582,Countryside School,2,4218900,Pequea Valley SD,Lancaster PA,42,-76.126561,40.06412,0,1,0,0,8,0,1,1,19,0,.0078747,.59340715,0,0,1
A9105694,Harristown School,2,4218900,Pequea Valley SD,Lancaster PA,42,-76.119897,39.993827,0,1,0,0,5,2,1,1,13,2,.0336814,.59340715,0,0,1
A9105696,Harvest Lane School,2,4218900,Pequea Valley SD,Lancaster PA,42,-76.141273,40.044631,0,1,0,0,10,0,1,2,28,0,.0098434,.59340715,0,0,1
A9105719,Hollow Amish School,2,4218900,Pequea Valley SD,Lancaster PA,42,-76.081651,40.05553,0,1,0,0,14,0,1,3,40,0,.0137807,.59340715,0,0,1
A9105805,Meadow Lane School,2,4218900,Pequea Valley SD,Lancaster PA,42,-76.097851,40.064403,0,1,0,0,5,0,1,2,20,0,.0049217,.59340715,0,0,1
A9105859,Muddy Run Amish School,2,4218900,Pequea Valley SD,Lancaster PA,42,-76.158908,40.046092,0,1,0,0,10,0,1,3,75,1,.0098434,.59340715,0,0,1
A9106018,Springhead Amish School/Sam Ebersol Chairman,2,4218900,Pequea Valley SD,Lancaster PA,42,-75.979621,40.03461,0,1,0,0,9,0,1,1,19,0,.008859,.59340715,0,0,1
A9106099,Westfield Amish Parochial School,2,4218900,Pequea Valley SD,Lancaster PA,42,-76.096531,40.03953,0,1,0,0,14,0,1,2,40,1,.0137807,.59340715,0,0,1
A9303921,Newport School,2,4218900,Pequea Valley SD,Lancaster PA,42,-76.093611,40.033133,0,1,0,0,11,0,1,2,40,1,.0108277,.59340715,0,1,0
A9503511,East Gordon School,2,4218900,Pequea Valley SD,Lancaster PA,42,-76.121631,40.021388,0,1,0,0,6,0,1,1,18,0,.005906,.59340715,0,0,1
A9702968,Millwood School,2,4218900,Pequea Valley SD,Lancaster PA,42,-76.018753,40.018018,0,1,0,0,7,0,1,1,61,2,.0068904,.59340715,0,0,1
A9702985,New Milltown Amish Parochial School,2,4218900,Pequea Valley SD,Lancaster PA,42,-76.057141,40.0289,0,1,0,0,11,0,1,2,240,29,.0108277,.59340715,0,0,1
01196588,Little Britain Mennonite School,2,4221810,Solanco SD,Lancaster PA,42,-76.109475,39.781145,0,1,0,0,16,0,2,2,32,0,.0265781,.2834275,0,0,1
01201294,Oak Shade School,2,4221810,Solanco SD,Lancaster PA,42,-76.090411,39.80284,0,1,0,0,9,0,2,1,25,0,.0149502,.2834275,0,0,1
02054145,Bethel Mennonite School,2,4221810,Solanco SD,Lancaster PA,42,-76.156011,39.81545,0,1,0,0,12,0,1,2,436,34,.0199336,.2834275,0,0,1
422181002657,Smith Ms,2,4221810,Solanco SD,Lancaster PA,42,-76.146897,39.895215,0,0,0,1,426,50,3,1,434,50,.4131327,.2834275,0,0,1
422181005054,Swift Ms,2,4221810,Solanco SD,Lancaster PA,42,-76.158155,39.810138,0,0,0,1,418,34,1,1,430,34,.0677741,.2834275,0,0,1
A0109082,Windy Knoll Amish School,2,4221810,Solanco SD,Lancaster PA,42,-76.124296,39.772745,0,1,0,0,7,0,2,1,23,0,.0116279,.2834275,0,0,1
A0502918,Cardinal Wing School,2,4221810,Solanco SD,Lancaster PA,42,-76.19461,39.838698,0,1,0,0,5,0,3,4,37,0,.0083056,.2834275,0,0,1
A0502967,Fairfield School,2,4221810,Solanco SD,Lancaster PA,42,-76.219391,39.79065,0,1,0,0,10,0,2,2,32,0,.0166113,.2834275,0,0,1
A0502977,Forest Ridge School,2,4221810,Solanco SD,Lancaster PA,42,-76.198731,39.74937,0,1,0,0,11,0,2,1,21,0,.0182724,.2834275,0,0,1
A0503005,Hillside School,2,4221810,Solanco SD,Lancaster PA,42,-76.229603,39.92317,0,1,0,0,9,0,2,2,23,0,.0149502,.2834275,0,0,1
A0503057,Mt Pleasant View Amish School,2,4221810,Solanco SD,Lancaster PA,42,-76.098162,39.925755,0,1,0,0,11,0,3,3,52,0,.0182724,.2834275,0,0,1
A0701930,Harmony Ridge School,2,4221810,Solanco SD,Lancaster PA,42,-76.239231,39.78998,0,1,0,0,12,0,2,1,22,0,.0199336,.2834275,0,0,1
A0701977,Parkside Amish School,2,4221810,Solanco SD,Lancaster PA,42,-76.272411,39.81194,0,1,0,0,10,0,3,2,24,1,.0166113,.2834275,0,0,1
A0701980,Picadilly Ridge School,2,4221810,Solanco SD,Lancaster PA,42,-76.168821,39.92339,0,1,0,0,8,0,3,4,460,50,.013289,.2834275,0,0,1
A0903267,Valley Road School,2,4221810,Solanco SD,Lancaster PA,42,-76.054114,39.931116,0,1,0,0,7,0,2,1,32,0,.0116279,.2834275,0,0,1
A1101987,New Providence School,2,4221810,Solanco SD,Lancaster PA,42,-76.199895,39.910075,0,1,0,0,9,0,1,1,18,0,.0149502,.2834275,0,0,1
A1101988,Oak Ridge School,2,4221810,Solanco SD,Lancaster PA,42,-76.200816,39.770506,0,1,0,0,10,0,2,2,31,0,.0166113,.2834275,0,0,1
A1302895,Misty Meadow School,2,4221810,Solanco SD,Lancaster PA,42,-76.076011,39.87358,0,1,0,0,9,0,2,1,18,0,.0149502,.2834275,0,0,1
A1503155,Calvary Christian Academy,2,4221810,Solanco SD,Lancaster PA,42,-76.156831,39.85047,0,1,0,0,8,0,3,4,449,34,.013289,.2834275,0,0,1
A1503175,Clearview Hollow,2,4221810,Solanco SD,Lancaster PA,42,-76.210158,39.879736,0,1,0,0,10,0,3,5,53,0,.0166113,.2834275,0,0,1
A1503329,Meadows Of Hope Christian School,2,4221810,Solanco SD,Lancaster PA,42,-76.254087,39.840965,0,1,0,0,2,1,2,2,19,1,.0190932,.2834275,0,0,1
A1503449,Summit Hill School,2,4221810,Solanco SD,Lancaster PA,42,-76.131834,39.944244,0,1,0,0,8,0,2,1,16,0,.013289,.2834275,0,0,1
A1703104,New Providence School,2,4221810,Solanco SD,Lancaster PA,42,-76.199895,39.910075,0,1,0,0,9,0,1,1,18,0,.0149502,.2834275,0,0,1
A1703128,Pennsy Ridge School,2,4221810,Solanco SD,Lancaster PA,42,-76.212429,39.928441,0,1,0,0,6,0,2,4,41,0,.0099668,.2834275,0,0,1
A1703160,Scalpy Hollow School,2,4221810,Solanco SD,Lancaster PA,42,-76.226397,39.840934,0,1,0,0,10,0,1,1,17,0,.0166113,.2834275,0,0,1
A9105461,Ashville School,2,4221810,Solanco SD,Lancaster PA,42,-76.051826,39.795349,0,1,0,0,13,0,3,2,31,0,.0215947,.2834275,0,0,1
A9105471,Bartville Amish School,2,4221810,Solanco SD,Lancaster PA,42,-76.068511,39.89047,0,1,0,0,9,0,1,1,19,0,.0149502,.2834275,0,0,1
A9105533,Cedar Valley School,2,4221810,Solanco SD,Lancaster PA,42,-76.150821,39.7398,0,1,0,0,10,0,3,1,17,0,.0166113,.2834275,0,0,1
A9105596,Deer Hollow Amish School,2,4221810,Solanco SD,Lancaster PA,42,-76.215451,39.91203,0,1,0,0,8,0,2,4,41,0,.013289,.2834275,0,0,1
A9105617,East Nickle Mines Amish School,2,4221810,Solanco SD,Lancaster PA,42,-76.064671,39.95258,0,1,0,0,25,0,2,2,105,2,.0415282,.2834275,0,0,1
A9105665,Fulton View Amish School,2,4221810,Solanco SD,Lancaster PA,42,-76.144138,39.816062,0,1,0,0,6,0,1,1,18,0,.0099668,.2834275,0,0,1
A9503475,Chestnut Run School,2,4221810,Solanco SD,Lancaster PA,42,-76.228051,39.82648,0,1,0,0,7,0,2,2,24,0,.0116279,.2834275,0,0,1
A9703037,Rynear Rd School,2,4221810,Solanco SD,Lancaster PA,42,-76.054762,39.894348,0,1,0,0,10,0,1,1,19,0,.0166113,.2834275,0,0,1
A9903841,Tanglewood School,2,4221810,Solanco SD,Lancaster PA,42,-76.231451,39.85312,0,1,0,0,7,0,1,1,17,0,.0116279,.2834275,0,0,1
02055091,Somerset Christian School,1,4221840,Somerset Area SD,,42,-79.058491,40.01977,0,1,0,0,45,2,1,1,70,2,.0497806,.07305047,0,0,1
422184000279,Eagle View El Sch,1,4221840,Somerset Area SD,,42,-79.103269,40.009466,0,0,0,1,421,25,1,1,833,45,.5,.07305047,0,0,1
422184004009,Maple Ridge El Sch,1,4221840,Somerset Area SD,,42,-79.099333,40.003217,0,0,0,1,412,20,1,1,833,45,.1964225,.07305047,0,0,1
A1503304,Maple Ridge School,1,4221840,Somerset Area SD,,42,-78.986491,40.05543,0,1,0,0,7,0,5,1,116,0,.0555181,.07305047,0,0,1
A9903562,Apostolic Christian Academy,1,4221840,Somerset Area SD,,42,-79.072889,40.01847,0,1,0,0,25,0,1,1,70,2,.1982788,.07305047,0,0,1
02163085,Mitchell Christian School,3,4648390,Mitchell School District 17-2,,46,-98.036557,43.726559,0,1,0,0,36,0,2,2,837,43,.3,.07556675,0,0,1
464839000442,Mitchell High School - 01,3,4648390,Mitchell School District 17-2,,46,-98.016448,43.718973,0,0,0,1,777,43,2,2,837,43,.5,.07556675,0,0,1
464839001337,Abbott House High School - 07,3,4648390,Mitchell School District 17-2,,46,-98.030245,43.701538,0,0,0,1,24,0,2,2,837,43,.2,.07556675,0,0,1
02067438,Seneca Trail Christian Academy,2,5400390,GREENBRIER COUNTY SCHOOLS,,54,-80.446101,37.727447,0,1,0,0,18,0,4,1,785,54,.0367948,.22988722,0,0,1
540039000050,Eastern Greenbrier Middle School,2,5400390,GREENBRIER COUNTY SCHOOLS,,54,-80.472979,37.773813,0,0,0,1,767,54,4,2,823,56,.5,.22988722,0,0,1
540039001038,Western Greenbrier Middle School,2,5400390,GREENBRIER COUNTY SCHOOLS,,54,-80.667985,37.955694,0,0,0,1,301,4,15,2,400,6,.462115,.22988722,0,0,1
A0503682,Lewisburg Baptist Academy,2,5400390,GREENBRIER COUNTY SCHOOLS,,54,-80.433414,37.815153,0,1,0,0,38,2,4,1,805,56,.0010902,.22988722,0,0,1
02067438,Seneca Trail Christian Academy,3,5400390,GREENBRIER COUNTY SCHOOLS,,54,-80.446101,37.727447,0,1,0,0,27,0,4,1,1138,67,.0596317,.15506138,0,0,1
540039000230,Greenbrier East High School,3,5400390,GREENBRIER COUNTY SCHOOLS,,54,-80.470452,37.775643,0,0,0,1,1111,67,4,2,1161,68,.5,.15506138,0,0,1
540039000232,Greenbrier West High School,3,5400390,GREENBRIER COUNTY SCHOOLS,,54,-80.732789,38.003121,0,0,0,1,376,9,13,1,523,10,.4336565,.15506138,0,0,1
A0503682,Lewisburg Baptist Academy,3,5400390,GREENBRIER COUNTY SCHOOLS,,54,-80.433414,37.815153,0,1,0,0,23,1,4,1,1134,68,.0067118,.15506138,0,0,1
01507176,St Charles Parish School,1,5506140,Hartland-Lakeside J3 School District,Milwaukee-Waukesha-West Allis WI,55,-88.337921,43.10808,0,1,0,0,139,3,1,4,743,40,.2454268,.21106821,0,1,0
01515868,Zion Lutheran School,1,5506140,Hartland-Lakeside J3 School District,Milwaukee-Waukesha-West Allis WI,55,-88.331761,43.1036,0,1,0,0,19,1,1,3,474,26,.0015244,.21106821,0,1,0
550614002257,North Elementary,1,5506140,Hartland-Lakeside J3 School District,Milwaukee-Waukesha-West Allis WI,55,-88.342429,43.106947,0,0,0,1,254,16,1,4,743,40,.1768293,.21106821,0,1,0
550614002258,South Elementary,1,5506140,Hartland-Lakeside J3 School District,Milwaukee-Waukesha-West Allis WI,55,-88.334931,43.088421,0,0,0,1,259,9,1,1,345,16,.2545732,.21106821,0,1,0
550614002845,Hartland School Of Community Learning,1,5506140,Hartland-Lakeside J3 School District,Milwaukee-Waukesha-West Allis WI,55,-88.335216,43.08813,0,0,1,0,86,7,1,1,345,16,.1539634,.21106821,0,1,0
550614002913,Hartland Fine Arts Leadership Academy,1,5506140,Hartland-Lakeside J3 School District,Milwaukee-Waukesha-West Allis WI,55,-88.34226,43.107005,1,0,0,0,62,6,1,4,743,40,.1676829,.21106821,0,1,0
01508329,St Mary Of The Immaculate Conception School,2,5506600,Hortonville Area School District,Appleton WI,55,-88.536851,44.32696,0,1,0,0,27,3,3,1,460,35,.0725373,.24066092,0,1,0
01513725,Bethlehem Evangelical Lutheran School,2,5506600,Hortonville Area School District,Appleton WI,55,-88.638611,44.33566,0,1,0,0,10,0,1,2,394,12,.0238806,.24066092,0,0,1
01933761,Immanuel Evangelical Lutheran School,2,5506600,Hortonville Area School District,Appleton WI,55,-88.554651,44.287,0,1,0,0,64,1,2,1,497,33,.1071642,.24066092,0,0,1
550660002408,Hortonville Middle,2,5506600,Hortonville Area School District,Appleton WI,55,-88.62922,44.338369,0,0,0,1,325,12,1,2,394,12,.2280597,.24066092,0,0,1
550660002573,Greenville Middle,2,5506600,Hortonville Area School District,Appleton WI,55,-88.532826,44.292269,0,0,0,1,433,32,2,1,497,33,.4274627,.24066092,0,1,0
550660002854,Fox West Academy,2,5506600,Hortonville Area School District,Appleton WI,55,-88.628904,44.340511,1,0,0,0,59,0,1,2,394,12,.1408955,.24066092,0,0,1
01511331,St John'S Lutheran School,1,5509870,Montello School District,,55,-89.319261,43.79135,0,1,0,0,35,1,1,2,306,17,.2096273,.12299465,0,0,1
550987001302,Forest Lane Community School,1,5509870,Montello School District,,55,-89.322211,43.796286,0,0,0,1,268,16,1,2,306,17,.5,.12299465,0,0,1
550987003016,Montello Virtual Charter School,1,5509870,Montello School District,,55,-89.322211,43.796286,1,0,0,0,3,0,1,2,306,17,.0395963,.12299465,0,0,1
A9106933,Log Cabin School,1,5509870,Montello School District,,55,-89.274004,43.643425,0,1,0,0,19,0,4,1,31,0,.2507764,.12299465,0,0,1
01512991,Christ Lutheran School,2,5510060,Mukwonago School District,Milwaukee-Waukesha-West Allis WI,55,-88.208681,42.88201,0,1,0,0,24,0,1,1,94,3,.0803601,.132618,0,1,0
01514693,St Johns Evangelical Lutheran School,2,5510060,Mukwonago School District,Milwaukee-Waukesha-West Allis WI,55,-88.342987,42.87529,0,1,0,0,30,0,1,2,863,41,.1004501,.132618,0,0,1
551006001315,Big Bend Elementary,2,5510060,Mukwonago School District,Milwaukee-Waukesha-West Allis WI,55,-88.209883,42.886994,0,0,0,1,70,3,1,1,94,3,.0389176,.132618,0,1,0
551006001316,Clarendon Avenue Elementary,2,5510060,Mukwonago School District,Milwaukee-Waukesha-West Allis WI,55,-88.330369,42.872444,0,0,0,1,79,2,1,2,863,41,.1342079,.132618,0,0,1
551006001320,Park View Middle,2,5510060,Mukwonago School District,Milwaukee-Waukesha-West Allis WI,55,-88.336229,42.873068,0,0,0,1,754,39,1,2,863,41,.0164123,.132618,0,0,1
551006001321,Prairie View Elementary,2,5510060,Mukwonago School District,Milwaukee-Waukesha-West Allis WI,55,-88.40631,42.92653,0,0,0,1,44,5,3,2,128,14,.1784499,.132618,0,0,1
551006002251,Rolling Hills Elementary,2,5510060,Mukwonago School District,Milwaukee-Waukesha-West Allis WI,55,-88.389234,42.877404,0,0,0,1,78,2,2,1,155,10,.1308596,.132618,0,0,1
551006002307,Section Elementary,2,5510060,Mukwonago School District,Milwaukee-Waukesha-West Allis WI,55,-88.381584,42.892575,0,0,0,1,77,8,2,1,155,10,.2634208,.132618,0,0,1
551006003354,Eagleville Charter School,2,5510060,Mukwonago School District,Milwaukee-Waukesha-West Allis WI,55,-88.433794,42.858989,1,0,0,0,24,1,3,2,48,4,.0152047,.132618,0,0,1
A0303383,Natures Classroom Institute & Montessori School,2,5510060,Mukwonago School District,Milwaukee-Waukesha-West Allis WI,55,-88.424084,42.892061,0,1,0,0,7,1,3,5,247,19,.041717,.132618,0,0,1
01506933,St Leonard School,2,5510170,Muskego-Norway School District,Milwaukee-Waukesha-West Allis WI,55,-88.132036,42.902793,0,1,0,0,39,1,2,1,592,38,.0722885,.12349945,0,1,0
01512299,St Pauls Lutheran School,2,5510170,Muskego-Norway School District,Milwaukee-Waukesha-West Allis WI,55,-88.091551,42.924,0,1,0,0,54,0,1,1,145,7,.1926207,.12349945,0,1,0
551017001330,Bay Lane Middle,2,5510170,Muskego-Norway School District,Milwaukee-Waukesha-West Allis WI,55,-88.118112,42.908136,0,0,0,1,553,37,2,1,592,38,.5,.12349945,0,1,0
551017001850,Lake Denoon Middle,2,5510170,Muskego-Norway School District,Milwaukee-Waukesha-West Allis WI,55,-88.181947,42.852677,0,0,0,1,553,26,2,1,614,30,.2350909,.12349945,0,1,0
01511058,St Mary School,1,5510620,New Richmond School District,Minneapolis-St. Paul-Bloomington MN-WI,55,-92.544231,45.12075,0,1,0,0,68,1,1,1,607,23,.1572093,.10657282,0,0,1
551062000225,New Richmond Paperjack Elementary,1,5510620,New Richmond School District,Minneapolis-St. Paul-Bloomington MN-WI,55,-92.5227,45.112884,0,0,0,1,332,18,1,2,1450,76,.0744186,.10657282,0,0,1
551062001389,New Richmond Starr Elementary,1,5510620,New Richmond School District,Minneapolis-St. Paul-Bloomington MN-WI,55,-92.533786,45.11281,0,0,0,1,539,22,1,3,1518,77,.3427907,.10657282,0,0,1
551062002789,New Richmond Hillside Elementary,1,5510620,New Richmond School District,Minneapolis-St. Paul-Bloomington MN-WI,55,-92.52548,45.10168,0,0,0,1,579,36,1,2,1450,76,.4255814,.10657282,0,0,1
01510407,St Luke Elementary School,1,5514250,River Valley School District,,55,-90.049486,43.276413,0,1,0,0,56,1,7,1,104,1,.1751851,.21400015,0,0,1
01510495,St John The Evangelist School,1,5514250,River Valley School District,,55,-90.069221,43.17813,0,1,0,0,48,0,1,1,365,22,.2284103,.21400015,0,0,1
551425001851,River Valley Arena Community Elementary,1,5514250,River Valley School District,Madison WI,55,-89.912022,43.162465,1,0,0,0,97,4,8,1,261,14,.0964046,.21400015,0,0,1
551425002346,River Valley Elementary,1,5514250,River Valley School District,,55,-90.079438,43.178737,0,0,0,1,317,22,1,1,365,22,.5,.21400015,0,0,1
